[
  {
    "id": "N4NQ_zT00mSNzSHvhjxjX",
    "name": "Alex",
    "type": "Lion",
    "location": {
      "lat": 14.4974,
      "lng": -14.4524
    },
    "description": "",
    "image": "https://images.unsplash.com/photo-1534188753412-3e26d0d618d6?ixlib=rb-1.2.1&ixid=MnwxMjA3fDB8MHxzZWFyY2h8OXx8bGlvbnxlbnwwfHwwfHw%3D&auto=format&fit=crop&w=800&q=60",
    "date": "2022-04-26T20:25:23.461Z"
  },
  {
    "id": "R6I_ECbWdCtyi6zdfYPOX",
    "name": "Mac",
    "type": "Mountain Lion",
    "location": {
      "lat": 36.778259,
      "lng": -119.417931
    },
    "description": "",
    "image": "https://images.unsplash.com/photo-1574786879814-8d498f7dd56c?ixlib=rb-1.2.1&ixid=MnwxMjA3fDB8MHxwaG90by1wYWdlfHx8fGVufDB8fHx8&auto=format&fit=crop&w=1665&q=80",
    "date": "2022-04-26T20:25:23.461Z"
  },
  {
    "id": "Wg2FlnTcLb847dSqQoB5z",
    "name": "Sonic",
    "type": "Hedgehog",
    "location": {
      "lat": 53.86515,
      "lng": -1.25763
    },
    "description": "",
    "image": "https://images.unsplash.com/photo-1568431477192-52bb13a55088?ixlib=rb-1.2.1&ixid=MnwxMjA3fDB8MHxwaG90by1wYWdlfHx8fGVufDB8fHx8&auto=format&fit=crop&w=2970&q=80",
    "date": "2022-04-26T20:25:23.461Z"
  },
  {
    "id": "zoNvBpBhCuRPAQRym-eSS",
    "name": "Joey",
    "type": "Kangaroo",
    "location": {
      "lat": -25.86515,
      "lng": 134.25763
    },
    "description": "",
    "image": "https://images.unsplash.com/photo-1572219392315-56c51cdce7b7?ixlib=rb-1.2.1&ixid=MnwxMjA3fDB8MHxwaG90by1wYWdlfHx8fGVufDB8fHx8&auto=format&fit=crop&w=2970&q=80",
    "date": "2022-04-26T20:25:23.461Z"
  },
  {
    "id": "qSUAusE_06o3EGVQ4PWgt",
    "name": "Po",
    "type": "Panda",
    "location": {
      "lat": 40.86515,
      "lng": 116.25763
    },
    "description": "",
    "image": "https://images.unsplash.com/photo-1572219392315-56c51cdce7b7?ixlib=rb-1.2.1&ixid=MnwxMjA3fDB8MHxwaG90by1wYWdlfHx8fGVufDB8fHx8&auto=format&fit=crop&w=2970&q=80",
    "date": "2022-04-26T20:25:23.461Z"
  },
  {
    "id": "_RIJlSSgeZCS93ZrEMEm8",
    "name": "Penny",
    "type": "Camel",
    "location": {
      "lat": 29.86515,
      "lng": 31.25763
    },
    "description": "",
    "image": "https://images.unsplash.com/photo-1616599458812-d7c86e0add7e?ixlib=rb-1.2.1&ixid=MnwxMjA3fDB8MHxwaG90by1wYWdlfHx8fGVufDB8fHx8&auto=format&fit=crop&w=1470&q=80",
    "date": "2022-04-26T20:25:23.461Z"
  },
  {
    "id": "2ZhgZ8v89HreApxjSopRE",
    "name": "Pete",
    "type": "Penguin",
    "location": {
      "lat": 55.86515,
      "lng": -3.25763
    },
    "description": "",
    "image": "https://images.unsplash.com/photo-1586945577540-507effb6f393?ixlib=rb-1.2.1&ixid=MnwxMjA3fDB8MHxwaG90by1wYWdlfHx8fGVufDB8fHx8&auto=format&fit=crop&w=2970&q=80",
    "date": "2022-04-26T20:25:23.461Z"
  },
  {
    "id": "FEOfs5x7QD6WPW0bp5CrF",
    "name": "Pip",
    "type": "Pigeon",
    "location": {
      "lat": 55.86515,
      "lng": -4.25763
    },
    "description": "",
    "image": "https://images.unsplash.com/photo-1554226114-04bd78f87c24?ixlib=rb-1.2.1&ixid=MnwxMjA3fDB8MHxwaG90by1wYWdlfHx8fGVufDB8fHx8&auto=format&fit=crop&w=2970&q=80",
    "date": "2022-04-26T20:25:23.461Z"
  }
]
